{"type":"FeatureCollection","features":[{"type":"Feature","properties":{"Nombre":"Aurora Specialty Coffee","Dirección":"C/ d'Escolano, 25","Comentario":"Espacio tranquilo para trabajar y pet friendly"},"geometry":{"type":"Point","coordinates":[-0.3791106,39.471441656]}},{"type":"Feature","properties":{"Nombre":"Barista Café","Dirección":"C/ Domenyo, 4","Comentario":"Café 100% arábica, recién tostado"},"geometry":{"type":"Point","coordinates":[-0.4704828,39.496856437]}},{"type":"Feature","properties":{"Nombre":"Bikini Cabanyal","Dirección":"C/ de les Drassanes, 52, Poblats Marítims, 46011","Comentario":"En pleno corazón del Cabanyal: café de especialidad, cocina casera y cócteles"},"geometry":{"type":"Point","coordinates":[-0.326245,39.472500001]}},{"type":"Feature","properties":{"Nombre":"Blackbird Café","Dirección":"C/ Reina Na María 7","Comentario":"Todo hecho en casa, desde el obrador hasta tu taza"},"geometry":{"type":"Point","coordinates":[-0.3721754,39.462053885]}},{"type":"Feature","properties":{"Nombre":"Blackbird Café-Little Blackbird","Dirección":"C/ Danzas, 2","Comentario":"Con el espíritu de 'Blackbird' de The Beatles como inspiración"},"geometry":{"type":"Point","coordinates":[-0.3786985,39.475968188]}},{"type":"Feature","properties":{"Nombre":"Bluebell Coffee Roasters","Dirección":"C/ Buenos Aires, 3","Comentario":"Compromiso con el origen, la sostenibilidad y el trabajo bien hecho"},"geometry":{"type":"Point","coordinates":[-0.3758182,39.462047145]}},{"type":"Feature","properties":{"Nombre":"Borja Specialty Coffee","Dirección":"C/ de Vicente Beltrán Grimal, 23","Comentario":"Un espacio para los más instagramers, donde cada detalle cuenta"},"geometry":{"type":"Point","coordinates":[-0.3492068,39.460194706]}},{"type":"Feature","properties":{"Nombre":"Boscon Coffee","Dirección":"C/ de Finlàndia, 16, El Pla del Real, 46010","Comentario":"Un local donde lo cotidiano se vuelve extraordinario"},"geometry":{"type":"Point","coordinates":[-0.3592581,39.471761446]}},{"type":"Feature","properties":{"Nombre":"BOTANIC Café-Té","Dirección":"C/ de Quart, 91","Comentario":"Local de especialidad con tuestes artesanales"},"geometry":{"type":"Point","coordinates":[-0.3864237,39.475554474]}},{"type":"Feature","properties":{"Nombre":"Brewtalist Coffee Hub","Dirección":"C/ de Baldoví, 2","Comentario":"Su lema: el sitio si odias lo mediocre y buscas algo más que agua marrón caliente."},"geometry":{"type":"Point","coordinates":[-0.3788545,39.469108283]}},{"type":"Feature","properties":{"Nombre":"Butter Eatery House","Dirección":"C/ del Gravador Esteve, 33","Comentario":"Pastelería sin gluten hecha con ingredientes de calidad"},"geometry":{"type":"Point","coordinates":[-0.3660728,39.469167162]}},{"type":"Feature","properties":{"Nombre":"Café ArtySana","Dirección":"C/ de La Reina, 56","Comentario":"Cocina casera veggie, buen café y arte local"},"geometry":{"type":"Point","coordinates":[-0.3290597,39.466888602]}},{"type":"Feature","properties":{"Nombre":"Café ArtySana","Dirección":"C/ de Dénia, 49","Comentario":"Acerca el arte a todos sus clientes a través de exposiciones itinerantes"},"geometry":{"type":"Point","coordinates":[-0.3763524,39.463045381]}},{"type":"Feature","properties":{"Nombre":"Café Colomer","Dirección":"Plaza de Fra Lluís Colomer, 7, Bajo B","Comentario":"Crepería y micro-tostador en Valencia, donde el sabor manda y el azúcar es opcional"},"geometry":{"type":"Point","coordinates":[-0.3525777,39.479303307]}},{"type":"Feature","properties":{"Nombre":"Café Cros","Dirección":"C/ dels Sants Just i Pastor, 58","Comentario":"Un espacio acogedor para celebraciones, talleres y catering con sabor casero y mucho mimo"},"geometry":{"type":"Point","coordinates":[-0.349041,39.469911981]}},{"type":"Feature","properties":{"Nombre":"Cafeinómanos","Dirección":"C/ de l'Ambaixador Vich, 11, bajo","Comentario":"Cafetería de especialidad multi-roaster para llevar"},"geometry":{"type":"Point","coordinates":[-0.3755253,39.47233622]}},{"type":"Feature","properties":{"Nombre":"Cafetería Guapas","Dirección":"Avenida de Francia, 32","Comentario":"Desayunos, brunch y pastelería casera servidos siempre con amor"},"geometry":{"type":"Point","coordinates":[-0.347863,39.459173191]}},{"type":"Feature","properties":{"Nombre":"Cafeto y Camellia","Dirección":"C/ de Calixt III, 45, BJ 4","Comentario":"Una experiencia sensorial, con productos seleccionados y accesorios exclusivos"},"geometry":{"type":"Point","coordinates":[-0.3909875,39.470645181]}},{"type":"Feature","properties":{"Nombre":"Casa Capicúa","Dirección":"C/ Jesús, 14","Comentario":"Local con alma familiar y cocina sin prisas, donde las hermanas Benito son el alma"},"geometry":{"type":"Point","coordinates":[-0.3819616,39.468145155]}},{"type":"Feature","properties":{"Nombre":"Casa Fran","Dirección":"C/ Puerto Rico, 29","Comentario":"Un local de take away donde la barra cobra protagonismo"},"geometry":{"type":"Point","coordinates":[-0.3759879,39.461737347]}},{"type":"Feature","properties":{"Nombre":"Casa Raíz","Dirección":"C/ Pintor Salvador Abril, 34","Comentario":"Un refugio único que combina el arte del café de especialidad con un ambiente acogedor y cultural"},"geometry":{"type":"Point","coordinates":[-0.3697783,39.462094652]}},{"type":"Feature","properties":{"Nombre":"CATÉ Café y té","Dirección":"C/ de Ciscar, 15","Comentario":"Calidad, sostenibilidad y variedad en cada taza"},"geometry":{"type":"Point","coordinates":[-0.3659002,39.466566905]}},{"type":"Feature","properties":{"Nombre":"Cherry Blossom","Dirección":"C/ de Moratín, 15","Comentario":"Un espacio en pleno centro de Valencia que celebra la primavera y la naturaleza"},"geometry":{"type":"Point","coordinates":[-0.3755549,39.470910596]}},{"type":"Feature","properties":{"Nombre":"CLEM Café","Dirección":"C/ de Conca, 40, Extramurs, 46007","Comentario":"Destaca por su propuesta de comida vegetariana, vegana y sin gluten"},"geometry":{"type":"Point","coordinates":[-0.3860238,39.467356852]}},{"type":"Feature","properties":{"Nombre":"Coffee & Bikes","Dirección":"C. de la Puríssima, 1","Comentario":"Un punto de encuentro donde el ciclismo y la cultura del café se unen"},"geometry":{"type":"Point","coordinates":[-0.3776858,39.475162948]}},{"type":"Feature","properties":{"Nombre":"COPPER (Specialty coffee & brunch)","Dirección":"C/ de Borriana, 12","Comentario":"Un espacio pet friendly donde tu mascota es siempre bienvenida"},"geometry":{"type":"Point","coordinates":[-0.3673215,39.465051073]}},{"type":"Feature","properties":{"Nombre":"Cult Café","Dirección":"C/ de l'Arquebisbe Mayoral, 7, Bajo","Comentario":"Tostaduría y cafetería centrada en cafés de origen, con tueste propio"},"geometry":{"type":"Point","coordinates":[-0.378161,39.469406011]}},{"type":"Feature","properties":{"Nombre":"DOCTA Coffee","Dirección":"Gran Via del Marqués del Túria, 34","Comentario":"Especialidad, arte y diseño en el centro de Valencia"},"geometry":{"type":"Point","coordinates":[-0.3698363,39.466549855]}},{"type":"Feature","properties":{"Nombre":"Doux-Amer Café","Dirección":"C/ de Just Vilar, 29","Comentario":"Una amplia variedad de opciones de brunch creativo y saludable"},"geometry":{"type":"Point","coordinates":[-0.3301585,39.467347152]}},{"type":"Feature","properties":{"Nombre":"East Crema Coffee","Dirección":"C/ Sorní, 19","Comentario":"Un espacio para desconectar, trabajar o disfrutar"},"geometry":{"type":"Point","coordinates":[-0.3675986,39.470527837]}},{"type":"Feature","properties":{"Nombre":"East Crema Coffee","Dirección":"C/ Roger de Lauria, 8","Comentario":"Destaca por su trazabilidad y tueste preciso"},"geometry":{"type":"Point","coordinates":[-0.3746687,39.469251656]}},{"type":"Feature","properties":{"Nombre":"East Crema Coffee","Dirección":"C/ Almirante Cadarso, 21","Comentario":"Un local en el que el diseño, la experiencia y la calidad del café encajan en perfecta sintonía"},"geometry":{"type":"Point","coordinates":[-0.3674913,39.465053125]}},{"type":"Feature","properties":{"Nombre":"El Coffi del Carmen","Dirección":"C/ de la Creu, 4, bajo derecha","Comentario":"Ambiente acogedor, comida casera de alta calidad, y buen café."},"geometry":{"type":"Point","coordinates":[-0.3762573,39.478713608]}},{"type":"Feature","properties":{"Nombre":"Elixir Café de Especialidad  Ruzafa","Dirección":"Mercado de Ruzafa Casetas exteriores 112-116, 46006","Comentario":"Café de especialidad, trazable, sostenible y respetuoso con el medio ambiente."},"geometry":{"type":"Point","coordinates":[-0.3711076,39.462862607]}},{"type":"Feature","properties":{"Nombre":"Elixir Café de Especialidad - Barrio del Carmen","Dirección":"C/ dels Cavallers, 45","Comentario":"Cada sorbo refleja un proceso artesanal, justo y respetuoso con el planeta"},"geometry":{"type":"Point","coordinates":[-0.3796048,39.476849838]}},{"type":"Feature","properties":{"Nombre":"Elixir Café de Especialidad Arrancapins","Dirección":"C/ de Sant Francesc de Borja, 4","Comentario":"Compromiso con la calidad, el respeto al medio ambiente y el fortalecimiento de las comunidades caficultoras."},"geometry":{"type":"Point","coordinates":[-0.3844113,39.466712678]}},{"type":"Feature","properties":{"Nombre":"Fav Coffee","Dirección":"Cronista Carreres, 1","Comentario":"Una farmacia convertida en cafetería, con opciones veganas y vegetarianas"},"geometry":{"type":"Point","coordinates":[-0.3685614,39.473033912]}},{"type":"Feature","properties":{"Nombre":"Federal Café","Dirección":"C/ de l'Ambaixador Vich, 15","Comentario":"Ambiente acogedor y cosmopolita, inspirado en la cultura australiana"},"geometry":{"type":"Point","coordinates":[-0.3459122,39.527450769]}},{"type":"Feature","properties":{"Nombre":"Fika","Dirección":"C/ del Duc de Calàbria, 16","Comentario":"Una tradición sueca hecha local"},"geometry":{"type":"Point","coordinates":[-0.3663429,39.462600149]}},{"type":"Feature","properties":{"Nombre":"Fiveo Coffee","Dirección":"C/ Dr. Serrano, 1","Comentario":"Un local que rompe con lo tradicional"},"geometry":{"type":"Point","coordinates":[-0.3721447,39.462650981]}},{"type":"Feature","properties":{"Nombre":"FloRa bake & Espresso","Dirección":"C/ del Dr. Sumsi, 8","Comentario":"Aquí los pasteles se disfrutan mejor con el sabor intenso su café."},"geometry":{"type":"Point","coordinates":[-0.3693982,39.463527614]}},{"type":"Feature","properties":{"Nombre":"Flying Bean Coffee","Dirección":"C/ del Doctor Vila Barberà, 12","Comentario":"Ganos tostados en el local, extracción precisa con la Black Eagle y opciones como Nitro Cold Brew"},"geometry":{"type":"Point","coordinates":[-0.3810553,39.462814984]}},{"type":"Feature","properties":{"Nombre":"Foc Coffee","Dirección":"C/ Mateu i Sanç, 25","Comentario":"Café de alta calidad a precios razonables"},"geometry":{"type":"Point","coordinates":[-0.3878437,39.457515208]}},{"type":"Feature","properties":{"Nombre":"FOUR Specialty Coffee & Bistro","Dirección":"C/ d'Espadà, 31","Comentario":"Opciones vegetarianas y veganas, ingredientes frescos y un ambiente acogedor."},"geometry":{"type":"Point","coordinates":[-0.3288882,39.471744566]}},{"type":"Feature","properties":{"Nombre":"Fran Café","Dirección":"C/ de Puerto Rico, 29, L'Eixample, 46004","Comentario":"Un pequeño rincón situado en el barrio de Russafa que invita a entrar y probar su café take away."},"geometry":{"type":"Point","coordinates":[-0.383026,39.47724175]}},{"type":"Feature","properties":{"Nombre":"Fumi Specialty Coffee","Dirección":"C/ de Matias Perelló, 37","Comentario":"Un espacio donde la pausa del café se convierte en tu ritual diario de autocuidado."},"geometry":{"type":"Point","coordinates":[-0.3669821,39.462240494]}},{"type":"Feature","properties":{"Nombre":"Gartxi Coffee","Dirección":"Avenida del Port, 65, Bajo Izquierda, Camins al Grau, 46021","Comentario":"Dispone además de un patio interior, perfecto para disfrutar de un desayuno al aire libre."},"geometry":{"type":"Point","coordinates":[-0.3541093,39.466714519]}},{"type":"Feature","properties":{"Nombre":"Gigi World Coffee Specialty","Dirección":"C/ del Mestre Racional, 3, Carrer Quart, 7, 46005","Comentario":"Apuesta por una cuidadosa selección de granos y tostado artesanal"},"geometry":{"type":"Point","coordinates":[-0.3636492,39.463571782]}},{"type":"Feature","properties":{"Nombre":"Goat Coffee Store","Dirección":"C/ de l'Abadia de Sant Martí, 4","Comentario":"Ofrece opciones como el espresso italiano que algunos comparan con el de Roma."},"geometry":{"type":"Point","coordinates":[-0.3759099,39.473142227]}},{"type":"Feature","properties":{"Nombre":"Henko Specialty Coffee","Dirección":"C/  Almazora, 44, Bajo Izquierda","Comentario":"Ofrece café de origen, tostado fresco y adaptado a distintos métodos de preparación"},"geometry":{"type":"Point","coordinates":[-0.370873,39.484563647]}},{"type":"Feature","properties":{"Nombre":"I’N Coffee & Tea","Dirección":"C/ del Dr. Romagosa, 5, Ciutat Vella, 46002","Comentario":"Café de calidad, con tueste propio,  programa de fidelidad y ambiente acogedor"},"geometry":{"type":"Point","coordinates":[-0.3724026,39.470854896]}},{"type":"Feature","properties":{"Nombre":"Ikore Kofi - Centro","Dirección":"C/ de Pascual i Genís, 3, Bajo Izquierda","Comentario":"Una experiencia completa que involucra la calidad, la sostenibilidad, la educación y la pasión por esta bebida"},"geometry":{"type":"Point","coordinates":[-0.3736901,39.470622514]}},{"type":"Feature","properties":{"Nombre":"Ikore Kofi - Market","Dirección":"Plaza del Baró de Cortés, 24, Mercado de Ruzafa","Comentario":"Selección de granos, tueste artesanal junto con catas y cursos"},"geometry":{"type":"Point","coordinates":[-0.3711152,39.462538684]}},{"type":"Feature","properties":{"Nombre":"Kaffeina Brunch & Specialty","Dirección":"C/ del Mur de Santa Anna, 4","Comentario":"Se specializa en brunchs con cafés de especialidad"},"geometry":{"type":"Point","coordinates":[-0.3746772,39.478969493]}},{"type":"Feature","properties":{"Nombre":"Kaffeina Brunch & Specialty","Dirección":"C/ de la Reina Na Germana, 9, L'Eixample, 46005","Comentario":"Buen café en medio del bullicio de la ciudad."},"geometry":{"type":"Point","coordinates":[-0.365665,39.464823872]}},{"type":"Feature","properties":{"Nombre":"Kaffetto Coffee Roasters","Dirección":"C/ Císcar, 15","Comentario":"Ofrece una frescura de tueste reciente"},"geometry":{"type":"Point","coordinates":[-0.3658333,39.466655259]}},{"type":"Feature","properties":{"Nombre":"Kaide Coffee","Dirección":"C/ de la Reina, 23","Comentario":"Se distingue por la creatividad en sus preparaciones"},"geometry":{"type":"Point","coordinates":[-0.3293603,39.464993186]}},{"type":"Feature","properties":{"Nombre":"Karma Café","Dirección":"Gran Vía de Fernando el Católico, 8","Comentario":"Un espacio pensado para la comodidad del cliente y atención a los detalles"},"geometry":{"type":"Point","coordinates":[-0.3840368,39.471662592]}},{"type":"Feature","properties":{"Nombre":"Kohi Café de Especialidad","Dirección":"C/ de la Safor, 9","Comentario":"Calificado con más de 80 puntos por la Specialty Coffee Association (SCA)"},"geometry":{"type":"Point","coordinates":[-0.4005829,39.489029151]}},{"type":"Feature","properties":{"Nombre":"Kopi Specialty Coffee","Dirección":"Gran Via de les Germanies, 16","Comentario":"De la finca a la taza: un recorrido con trazabilidad y respeto por cada etapa del proceso."},"geometry":{"type":"Point","coordinates":[-0.3752599,39.464664643]}},{"type":"Feature","properties":{"Nombre":"La Droguería | Speciality Coffee","Dirección":"C/ de la Corretgeria, 23","Comentario":"Un espacio con decoración cuidada y un café de sabor intenso que marca la diferencia."},"geometry":{"type":"Point","coordinates":[-0.3765412,39.475459366]}},{"type":"Feature","properties":{"Nombre":"La Guashira Specialty Coffee","Dirección":"C/ Flassaders, 8","Comentario":"Produce variedades exóticas de café de especialidad en su propia finca de Colombia"},"geometry":{"type":"Point","coordinates":[-0.3776153,39.472811773]}},{"type":"Feature","properties":{"Nombre":"Let it bloom","Dirección":"C/ de Francesc Sempere, 4, Bj Izq 01","Comentario":"Calidad, conocimiento y pasión por el café de especialidad, con opciones veganas creativas."},"geometry":{"type":"Point","coordinates":[-0.3707826,39.46096527]}},{"type":"Feature","properties":{"Nombre":"Los Picos Café","Dirección":"Plaza Manuel Granero, 20","Comentario":"Dominan la AeroPress y preparan un sándwich cubano famoso en la ciudad"},"geometry":{"type":"Point","coordinates":[-0.3752366,39.459488876]}},{"type":"Feature","properties":{"Nombre":"Mayan Coffees","Dirección":"C/  d'Hug de Montcada, 19, La Saïdia, 46010 València, Valencia","Comentario":"Uno de los pocos locales que ofrece café infusionado"},"geometry":{"type":"Point","coordinates":[-0.3715992,39.482427513]}},{"type":"Feature","properties":{"Nombre":"Mayan Coffees","Dirección":"C/ Murillo, 54","Comentario":"Opciones seleccionadas para resaltar las características únicas de cada grano"},"geometry":{"type":"Point","coordinates":[-0.383637,39.475728083]}},{"type":"Feature","properties":{"Nombre":"Maybean Café","Dirección":"C/ del Dr. Manuel Candela, 75","Comentario":"Ideal para trabajar o disfrutar de un brunch. Ofrece comida saludable, con opciones veganas y sin gluten."},"geometry":{"type":"Point","coordinates":[-0.3486034,39.472856227]}},{"type":"Feature","properties":{"Nombre":"Mestizo","Dirección":"C/ del Portal de Valldigna, 9","Comentario":"Terraza y dos salas, pet friendly, con opciones veganas y sin gluten para todos los gustos."},"geometry":{"type":"Point","coordinates":[-0.3782947,39.477571806]}},{"type":"Feature","properties":{"Nombre":"MiKENGO","Dirección":"C. del Dr. Josep Juan Dómine, 9, bajo izquierda","Comentario":"Un nuevo concepto en café y comida. Ofrece café de especialidad, bizcochos y bebidas caseras, increíbles tostadas y opciones sanas para disfrutar en cualquier momento del día"},"geometry":{"type":"Point","coordinates":[-0.3321588,39.461585953]}},{"type":"Feature","properties":{"Nombre":"Mora caffè","Dirección":"C/ de Castellón, 2","Comentario":"Ofrece café de alta calidad con un enfoque en el espresso italiano."},"geometry":{"type":"Point","coordinates":[-0.3766287,39.466238348]}},{"type":"Feature","properties":{"Nombre":"Navel Brunch and coffee","Dirección":"C/  de Menéndez y Pelayo, 5","Comentario":"Parada obligatoria para los amantes del café. Envuélvete en el sabor refinado del verdadero espresso italiano."},"geometry":{"type":"Point","coordinates":[-0.3633185,39.480352167]}},{"type":"Feature","properties":{"Nombre":"Near Me Specialty Coffee","Dirección":"Plaza del Col·legi del Patriarca, 3","Comentario":"¿Alguna vez has visto cómo tu café se enlata en tiempo real?"},"geometry":{"type":"Point","coordinates":[-0.3655442,39.535307605]}},{"type":"Feature","properties":{"Nombre":"News & Coffee","Dirección":"Plaza Doctor Collado, 9, kiosko de prensa","Comentario":"Un espacio que combina la venta de revistas y prensa con la oferta de café de alta calidad"},"geometry":{"type":"Point","coordinates":[-0.377729,39.474642432]}},{"type":"Feature","properties":{"Nombre":"Nuwanda Coffee","Dirección":"C/ del Doctor Sanchis Sivera, 8","Comentario":"Inspirada en la película \"El Club de los Poetas Muertos\""},"geometry":{"type":"Point","coordinates":[-0.3854626,39.469565552]}},{"type":"Feature","properties":{"Nombre":"Pals cafe. Specialty coffee","Dirección":"C/ Mestre Palau, 4","Comentario":"Combina la energía de la gran ciudad con la calidez de una comunidad cercana"},"geometry":{"type":"Point","coordinates":[-0.3843488,39.471810658]}},{"type":"Feature","properties":{"Nombre":"Paper cup specialty coffee","Dirección":"C/ de Ciril Amorós, 30","Comentario":"Café de especialidad tostado en casa y propuestas creativas como el horchata latte"},"geometry":{"type":"Point","coordinates":[-0.3720907,39.467154732]}},{"type":"Feature","properties":{"Nombre":"Paramoka","Dirección":"C/ de Sant Ignasi de Loiola, 4, Extramurs, 46008","Comentario":"Tuestes diseñados para cada método: moka, filtro y espresso."},"geometry":{"type":"Point","coordinates":[-0.3887347,39.474530898]}},{"type":"Feature","properties":{"Nombre":"Pure coffeine","Dirección":"C/ de la Pau, 23","Comentario":"Modelo Grab&Go, tecnología para garantizar calidad constante"},"geometry":{"type":"Point","coordinates":[-0.37136,39.473280381]}},{"type":"Feature","properties":{"Nombre":"Pure Coffeine","Dirección":"Carrer d'Isabel la Catòlica, 2","Comentario":"Buscan convertir un ritual diario en algo accesible para todos"},"geometry":{"type":"Point","coordinates":[-0.3711238,39.469518104]}},{"type":"Feature","properties":{"Nombre":"Puto Café","Dirección":"C/ Senda de l'Aire, 2","Comentario":"La cafetería más viral de Valencia: si dices esta palabra malsonante, te cobran menos por el café."},"geometry":{"type":"Point","coordinates":[-0.3708754,39.485034497]},"id":79},{"type":"Feature","properties":{"Nombre":"Q7th Specialty Coffee","Dirección":"Calle Quart, 7, 46001","Comentario":"Cafés de origen diverso y múltiples formas de preparación"},"geometry":{"type":"Point","coordinates":[-0.3806132,39.476245464]}},{"type":"Feature","properties":{"Nombre":"Raíces Café","Dirección":"Eduardo Boscá, 24","Comentario":"U refugio para los amantes de esta bebida, pero también del arte o la música."},"geometry":{"type":"Point","coordinates":[-0.3548849,39.483295676]}},{"type":"Feature","properties":{"Nombre":"Retrogusto Coffeemates","Dirección":"Plaza del Mercado, Mercado Central de Valencia, palcos 169-170","Comentario":"Ubicado en el corazón del Mercado Central"},"geometry":{"type":"Point","coordinates":[-0.3788365,39.47355418]}},{"type":"Feature","properties":{"Nombre":"Riot Specialty Coffee","Dirección":"C/ del Doctor Vicent Zaragoza, 15","Comentario":"Alog más que café, con cookies variadas"},"geometry":{"type":"Point","coordinates":[-0.36295,39.485385162]}},{"type":"Feature","properties":{"Nombre":"Syra Coffee - Cirilo Amorós","Dirección":"C/ de Ciril Amorós, 35, L'Eixample, 46004","Comentario":"Café de especialidad con compromiso por la sostenibilidad y el comercio justo"},"geometry":{"type":"Point","coordinates":[-0.3718629,39.467968328]}},{"type":"Feature","properties":{"Nombre":"Syra Coffee - Roger de Lauria","Dirección":"C/ de Roger de Llòria, 3, Ciutat Vella, 46002","Comentario":"Local minimalista que destaca por su compromiso con la sostenibilidad"},"geometry":{"type":"Point","coordinates":[-0.3752961,39.469856701]}},{"type":"Feature","properties":{"Nombre":"Syra Coffee - Samaniego","Dirección":"C/ de Samaniego, 18, Ciutat Vella, 46003","Comentario":"Ofrece todo tipo de variedades del café dependiendo de la temporada"},"geometry":{"type":"Point","coordinates":[-0.3763261,39.478304055]}},{"type":"Feature","properties":{"Nombre":"Syra Coffee - Turia","Dirección":"Gran Via del Marqués del Túria, 54, L'Eixample, 46005","Comentario":"Diseño urbano pensado para el disfrute diario."},"geometry":{"type":"Point","coordinates":[-0.3678718,39.467835809]}},{"type":"Feature","properties":{"Nombre":"Tallat Specialty Coffee","Dirección":"C/ Barraca, 25","Comentario":"Se ha consolidado como un punto de encuentro para amantes del café"},"geometry":{"type":"Point","coordinates":[-0.3299188,39.464911562]}},{"type":"Feature","properties":{"Nombre":"The Coffee","Dirección":"C/ dels Drets, 3","Comentario":"Lo mejor del café brasileño junto con la pureza y perfeccionismo japonés."},"geometry":{"type":"Point","coordinates":[-0.3762943,39.473738899]}},{"type":"Feature","properties":{"Nombre":"Tinobu Healthy food & Coffee","Dirección":"Avenida de l'Institut Obrer de València, 15","Comentario":"Desayunos sanos tanto dulces como salados, 100% sin gluten y sin lactosa."},"geometry":{"type":"Point","coordinates":[-0.3585466,39.456013819]}},{"type":"Feature","properties":{"Nombre":"Tostarte Specialty Coffee","Dirección":"C/ de la Vall d'Uixó, 3","Comentario":"Un espacio acogedor para trabajar, socializar o ir con tu mascota."},"geometry":{"type":"Point","coordinates":[-0.395326,39.460642888]}},{"type":"Feature","properties":{"Nombre":"UNCAFE","Dirección":"C/ de Martín Mengod, 6, Ciutat Vella, 46001","Comentario":"Conocido por la pasión de su barista, dispuesto a compartir historias sobre Valencia."},"geometry":{"type":"Point","coordinates":[-0.3770898,39.474289342]}},{"type":"Feature","properties":{"Nombre":"Vuka Coffee & Brunch","Dirección":"C/ dels Juristes, 12, Ciutat Vella, 46001","Comentario":"Café de especialidad y repostería artesanal cerca de la Plaza de la Virgen"},"geometry":{"type":"Point","coordinates":[-0.3766029,39.476146494]}}]}