{
  "type": "FeatureCollection",
  "cafes": {
      "type": "Feature",
      "properties": {
      "name": "cafes"
    }
  },  
"features": [
    {
      "type": "Feature",
      "properties": {
        "lat": 39.471441656,
        "lon": -0.3791106,
        "Nombre": "Aurora. Specialty Coffee",
        "Dirección": "C/ d'Escolano, 25",
        "Descripción de Sara": "Espacio tranquilo para trabajar y pet friendly"
      },
      "geometry": {
        "type": "Point",
        "coordinates": [
          -0.3791106,
          39.4714417
        ]
      }
    },
    {
      "type": "Feature",
      "properties": {
        "lat": 39.496856437,
        "lon": -0.4704828,
        "Nombre": "Barista Café",
        "Dirección": "C/ Domenyo, 4",
        "Descripción de Sara": "Café 100% arábica, recién tostado"
      },
      "geometry": {
        "type": "Point",
        "coordinates": [
          -0.4704828,
          39.4968564
        ]
      }
    },
    {
      "type": "Feature",
      "properties": {
        "lat": 39.472500001,
        "lon": -0.326245,
        "Nombre": "Bikini Cabanyal",
        "Dirección": "C/ de les Drassanes, 52, Poblats Marítims, 46011",
        "Descripción de Sara": "En pleno corazón del Cabanyal: café de especialidad, cocina casera y cócteles"
      },
      "geometry": {
        "type": "Point",
        "coordinates": [
          -0.326245,
          39.4725
        ]
      }
    },
    {
      "type": "Feature",
      "properties": {
        "lat": 39.462053885,
        "lon": -0.3721754,
        "Nombre": "Blackbird Café",
        "Dirección": "C/ Reina Na María 7",
        "Descripción de Sara": "Todo hecho en casa, desde el obrador hasta tu taza"
      },
      "geometry": {
        "type": "Point",
        "coordinates": [
          -0.3721754,
          39.4620539
        ]
      }
    },
    {
      "type": "Feature",
      "properties": {
        "lat": 39.475968188,
        "lon": -0.3786985,
        "Nombre": "Blackbird Café-Little Blackbird",
        "Dirección": "C/ Danzas, 2",
        "Descripción de Sara": "Con el espíritu de 'Blackbird' de The Beatles como inspiración"
      },
      "geometry": {
        "type": "Point",
        "coordinates": [
          -0.3786985,
          39.4759682
        ]
      }
    },
    {
      "type": "Feature",
      "properties": {
        "lat": 39.462047145,
        "lon": -0.3758182,
        "Nombre": "Bluebell Coffee Roasters",
        "Dirección": "C/ Buenos Aires, 3",
        "Descripción de Sara": "Compromiso con el origen, la sostenibilidad y el trabajo bien hecho"
      },
      "geometry": {
        "type": "Point",
        "coordinates": [
          -0.3758182,
          39.4620471
        ]
      }
    },
    {
      "type": "Feature",
      "properties": {
        "lat": 39.460194706,
        "lon": -0.3492068,
        "Nombre": "Borja Specialty Coffee",
        "Dirección": "C/ de Vicente Beltrán Grimal, 23",
        "Descripción de Sara": "Un espacio para los más instagramers, donde cada detalle cuenta"
      },
      "geometry": {
        "type": "Point",
        "coordinates": [
          -0.3492068,
          39.4601947
        ]
      }
    },
    {
      "type": "Feature",
      "properties": {
        "lat": 39.471761446,
        "lon": -0.3592581,
        "Nombre": "Boscon Coffee",
        "Dirección": "C/ de Finlàndia, 16, El Pla del Real, 46010",
        "Descripción de Sara": "Un local donde lo cotidiano se vuelve extraordinario"
      },
      "geometry": {
        "type": "Point",
        "coordinates": [
          -0.3592581,
          39.4717614
        ]
      }
    },
    {
      "type": "Feature",
      "properties": {
        "lat": 39.475554474,
        "lon": -0.3864237,
        "Nombre": "BOTANIC Café-Té",
        "Dirección": "C/ de Quart, 91",
        "Descripción de Sara": "Local de especialidad con tuestes artesanales"
      },
      "geometry": {
        "type": "Point",
        "coordinates": [
          -0.3864237,
          39.4755545
        ]
      }
    },
    {
      "type": "Feature",
      "properties": {
        "lat": 39.469108283,
        "lon": -0.3788545,
        "Nombre": "Brewtalist Coffee Hub",
        "Dirección": "C/ de Baldoví, 2",
        "Descripción de Sara": "Su lema: el sitio si odias lo mediocre y buscas algo más que agua marrón caliente."
      },
      "geometry": {
        "type": "Point",
        "coordinates": [
          -0.3788545,
          39.4691083
        ]
      }
    },
    {
      "type": "Feature",
      "properties": {
        "lat": 39.469167162,
        "lon": -0.3660728,
        "Nombre": "Butter Eatery House",
        "Dirección": "C/ del Gravador Esteve, 33",
        "Descripción de Sara": "Pastelería sin gluten hecha con ingredientes de calidad"
      },
      "geometry": {
        "type": "Point",
        "coordinates": [
          -0.3660728,
          39.4691672
        ]
      }
    },
    {
      "type": "Feature",
      "properties": {
        "lat": 39.466888602,
        "lon": -0.3290597,
        "Nombre": "Café ArtySana",
        "Dirección": "C/ de La Reina, 56",
        "Descripción de Sara": "Cocina casera veggie, buen café y arte local"
      },
      "geometry": {
        "type": "Point",
        "coordinates": [
          -0.3290597,
          39.4668886
        ]
      }
    },
    {
      "type": "Feature",
      "properties": {
        "lat": 39.463045381,
        "lon": -0.3763524,
        "Nombre": "Café ArtySana",
        "Dirección": "C/ de Dénia, 49",
        "Descripción de Sara": "Acerca el arte a todos sus clientes a través de exposiciones itinerantes"
      },
      "geometry": {
        "type": "Point",
        "coordinates": [
          -0.3763524,
          39.4630454
        ]
      }
    },
    {
      "type": "Feature",
      "properties": {
        "lat": 39.479303307,
        "lon": -0.3525777,
        "Nombre": "Café Colomer",
        "Dirección": "Plaza de Fra Lluís Colomer, 7, Bajo B",
        "Descripción de Sara": "Crepería y micro-tostador en Valencia, donde el sabor manda y el azúcar es opcional"
      },
      "geometry": {
        "type": "Point",
        "coordinates": [
          -0.3525777,
          39.4793033
        ]
      }
    },
    {
      "type": "Feature",
      "properties": {
        "lat": 39.469911981,
        "lon": -0.349041,
        "Nombre": "Café Cros",
        "Dirección": "C/ dels Sants Just i Pastor, 58",
        "Descripción de Sara": "Un espacio acogedor para celebraciones, talleres y catering con sabor casero y mucho mimo"
      },
      "geometry": {
        "type": "Point",
        "coordinates": [
          -0.349041,
          39.469912
        ]
      }
    },
    {
      "type": "Feature",
      "properties": {
        "lat": 39.47233622,
        "lon": -0.3755253,
        "Nombre": "Cafeinómanos",
        "Dirección": "C/ de l'Ambaixador Vich, 11, bajo",
        "Descripción de Sara": "Cafetería de especialidad multi-roaster para llevar"
      },
      "geometry": {
        "type": "Point",
        "coordinates": [
          -0.3755253,
          39.4723362
        ]
      }
    },
    {
      "type": "Feature",
      "properties": {
        "lat": 39.459173191,
        "lon": -0.347863,
        "Nombre": "Cafetería Guapas",
        "Dirección": "Avenida de Francia, 32",
        "Descripción de Sara": "Desayunos, brunch y pastelería casera servidos siempre con amor"
      },
      "geometry": {
        "type": "Point",
        "coordinates": [
          -0.347863,
          39.4591732
        ]
      }
    },
    {
      "type": "Feature",
      "properties": {
        "lat": 39.470645181,
        "lon": -0.3909875,
        "Nombre": "Cafeto y Camellia",
        "Dirección": "C/ de Calixt III, 45, BJ 4",
        "Descripción de Sara": "Una experiencia sensorial, con productos seleccionados y accesorios exclusivos"
      },
      "geometry": {
        "type": "Point",
        "coordinates": [
          -0.3909875,
          39.4706452
        ]
      }
    },
    {
      "type": "Feature",
      "properties": {
        "lat": 39.468145155,
        "lon": -0.3819616,
        "Nombre": "Casa Capicúa",
        "Dirección": "C/ Jesús, 14",
        "Descripción de Sara": "Local con alma familiar y cocina sin prisas, donde las hermanas Benito son el alma"
      },
      "geometry": {
        "type": "Point",
        "coordinates": [
          -0.3819616,
          39.4681452
        ]
      }
    },
    {
      "type": "Feature",
      "properties": {
        "lat": 39.461737347,
        "lon": -0.3759879,
        "Nombre": "Casa Fran",
        "Dirección": "C/ Puerto Rico, 29",
        "Descripción de Sara": "Un local de take away donde la barra cobra protagonismo"
      },
      "geometry": {
        "type": "Point",
        "coordinates": [
          -0.3759879,
          39.4617373
        ]
      }
    },
    {
      "type": "Feature",
      "properties": {
        "lat": 39.462094652,
        "lon": -0.3697783,
        "Nombre": "Casa Raíz",
        "Dirección": "C/ Pintor Salvador Abril, 34",
        "Descripción de Sara": "Un refugio único que combina el arte del café de especialidad con un ambiente acogedor y cultural"
      },
      "geometry": {
        "type": "Point",
        "coordinates": [
          -0.3697783,
          39.4620947
        ]
      }
    },
    {
      "type": "Feature",
      "properties": {
        "lat": 39.466566905,
        "lon": -0.3659002,
        "Nombre": "CATÉ Café y té",
        "Dirección": "C/ de Ciscar, 15",
        "Descripción de Sara": "Calidad, sostenibilidad y variedad en cada taza"
      },
      "geometry": {
        "type": "Point",
        "coordinates": [
          -0.3659002,
          39.4665669
        ]
      }
    },
    {
      "type": "Feature",
      "properties": {
        "lat": 39.470910596,
        "lon": -0.3755549,
        "Nombre": "Cherry Blossom",
        "Dirección": "C/ de Moratín, 15",
        "Descripción de Sara": "Un espacio en pleno centro de Valencia que celebra la primavera y la naturaleza"
      },
      "geometry": {
        "type": "Point",
        "coordinates": [
          -0.3755549,
          39.4709106
        ]
      }
    },
    {
      "type": "Feature",
      "properties": {
        "lat": 39.467356852,
        "lon": -0.3860238,
        "Nombre": "CLEM Café",
        "Dirección": "C/ de Conca, 40, Extramurs, 46007",
        "Descripción de Sara": "Destaca por su propuesta de comida vegetariana, vegana y sin gluten"
      },
      "geometry": {
        "type": "Point",
        "coordinates": [
          -0.3860238,
          39.4673569
        ]
      }
    },
    {
      "type": "Feature",
      "properties": {
        "lat": 39.475162948,
        "lon": -0.3776858,
        "Nombre": "Coffee & Bikes",
        "Dirección": "C. de la Puríssima, 1",
        "Descripción de Sara": "Un punto de encuentro donde el ciclismo y la cultura del café se unen"
      },
      "geometry": {
        "type": "Point",
        "coordinates": [
          -0.3776858,
          39.4751629
        ]
      }
    },
    {
      "type": "Feature",
      "properties": {
        "lat": 39.465051073,
        "lon": -0.3673215,
        "Nombre": "COPPER (Specialty coffee & brunch)",
        "Dirección": "C/ de Borriana, 12",
        "Descripción de Sara": "Un espacio pet friendly donde tu mascota es siempre bienvenida"
      },
      "geometry": {
        "type": "Point",
        "coordinates": [
          -0.3673215,
          39.4650511
        ]
      }
    },
    {
      "type": "Feature",
      "properties": {
        "lat": 39.469406011,
        "lon": -0.378161,
        "Nombre": "Cult Café",
        "Dirección": "C/ de l'Arquebisbe Mayoral, 7, Bajo",
        "Descripción de Sara": "Tostaduría y cafetería centrada en cafés de origen, con tueste propio"
      },
      "geometry": {
        "type": "Point",
        "coordinates": [
          -0.378161,
          39.469406
        ]
      }
    },
    {
      "type": "Feature",
      "properties": {
        "lat": 39.466549855,
        "lon": -0.3698363,
        "Nombre": "DOCTA Coffee",
        "Dirección": "Gran Via del Marqués del Túria, 34",
        "Descripción de Sara": "Especialidad, arte y diseño en el centro de Valencia"
      },
      "geometry": {
        "type": "Point",
        "coordinates": [
          -0.3698363,
          39.4665499
        ]
      }
    },
    {
      "type": "Feature",
      "properties": {
        "lat": 39.467347152,
        "lon": -0.3301585,
        "Nombre": "Doux-Amer Café",
        "Dirección": "C/ de Just Vilar, 29",
        "Descripción de Sara": "Una amplia variedad de opciones de brunch creativo y saludable"
      },
      "geometry": {
        "type": "Point",
        "coordinates": [
          -0.3301585,
          39.4673472
        ]
      }
    },
    {
      "type": "Feature",
      "properties": {
        "lat": 39.470527837,
        "lon": -0.3675986,
        "Nombre": "East Crema Coffee",
        "Dirección": "C/ Sorní, 19",
        "Descripción de Sara": "Un espacio para desconectar, trabajar o disfrutar"
      },
      "geometry": {
        "type": "Point",
        "coordinates": [
          -0.3675986,
          39.4705278
        ]
      }
    },
    {
      "type": "Feature",
      "properties": {
        "lat": 39.469251656,
        "lon": -0.3746687,
        "Nombre": "East Crema Coffee",
        "Dirección": "C/ Roger de Lauria, 8",
        "Descripción de Sara": "Destaca por su trazabilidad y tueste preciso"
      },
      "geometry": {
        "type": "Point",
        "coordinates": [
          -0.3746687,
          39.4692517
        ]
      }
    },
    {
      "type": "Feature",
      "properties": {
        "lat": 39.465053125,
        "lon": -0.3674913,
        "Nombre": "East Crema Coffee",
        "Dirección": "C/ Almirante Cadarso, 21",
        "Descripción de Sara": "Un local en el que el diseño, la experiencia y la calidad del café encajan en perfecta sintonía"
      },
      "geometry": {
        "type": "Point",
        "coordinates": [
          -0.3674913,
          39.4650531
        ]
      }
    },
    {
      "type": "Feature",
      "properties": {
        "lat": 39.478713608,
        "lon": -0.3762573,
        "Nombre": "El Coffi del Carmen",
        "Dirección": "C/ de la Creu, 4, bajo derecha",
        "Descripción de Sara": "Ambiente acogedor, comida casera de alta calidad, y buen café."
      },
      "geometry": {
        "type": "Point",
        "coordinates": [
          -0.3762573,
          39.4787136
        ]
      }
    },
    {
      "type": "Feature",
      "properties": {
        "lat": 39.462862607,
        "lon": -0.3711076,
        "Nombre": "Elixir Café de Especialidad  Ruzafa",
        "Dirección": "Mercado de Ruzafa Casetas exteriores 112-116, 46006",
        "Descripción de Sara": "Café de especialidad, trazable, sostenible y respetuoso con el medio ambiente."
      },
      "geometry": {
        "type": "Point",
        "coordinates": [
          -0.3711076,
          39.4628626
        ]
      }
    },
    {
      "type": "Feature",
      "properties": {
        "lat": 39.476849838,
        "lon": -0.3796048,
        "Nombre": "Elixir Café de Especialidad - Barrio del Carmen",
        "Dirección": "C/ dels Cavallers, 45",
        "Descripción de Sara": "Cada sorbo refleja un proceso artesanal, justo y respetuoso con el planeta"
      },
      "geometry": {
        "type": "Point",
        "coordinates": [
          -0.3796048,
          39.4768498
        ]
      }
    },
    {
      "type": "Feature",
      "properties": {
        "lat": 39.466712678,
        "lon": -0.3844113,
        "Nombre": "Elixir Café de Especialidad Arrancapins",
        "Dirección": "C/ de Sant Francesc de Borja, 4",
        "Descripción de Sara": "Compromiso con la calidad, el respeto al medio ambiente y el fortalecimiento de las comunidades caficultoras."
      },
      "geometry": {
        "type": "Point",
        "coordinates": [
          -0.3844113,
          39.4667127
        ]
      }
    },
    {
      "type": "Feature",
      "properties": {
        "lat": 39.47303391286664,
        "lon": -0.3685614965478592,
        "Nombre": "Fav Coffee",
        "Dirección": "Cronista Carreres, 1",
        "Descripción de Sara": "Una farmacia convertida en cafetería, con opciones veganas y vegetarianas"
      },
      "geometry": {
        "type": "Point",
        "coordinates": [
          -0.3685615,
          39.4730339
        ]
      }
    },
    {
      "type": "Feature",
      "properties": {
        "lat": 39.527450769,
        "lon": -0.3459122,
        "Nombre": "Federal Café",
        "Dirección": "C/ de l'Ambaixador Vich, 15",
        "Descripción de Sara": "Ambiente acogedor y cosmopolita, inspirado en la cultura australiana"
      },
      "geometry": {
        "type": "Point",
        "coordinates": [
          -0.3459122,
          39.5274508
        ]
      }
    },
    {
      "type": "Feature",
      "properties": {
        "lat": 39.462600149,
        "lon": -0.3663429,
        "Nombre": "Fika",
        "Dirección": "C/ del Duc de Calàbria, 16",
        "Descripción de Sara": "Una tradición sueca hecha local"
      },
      "geometry": {
        "type": "Point",
        "coordinates": [
          -0.3663429,
          39.4626001
        ]
      }
    },
    {
      "type": "Feature",
      "properties": {
        "lat": 39.462650981,
        "lon": -0.3721447,
        "Nombre": "Fiveo Coffee",
        "Dirección": "C/ Dr. Serrano, 1",
        "Descripción de Sara": "Un local que rompe con lo tradicional"
      },
      "geometry": {
        "type": "Point",
        "coordinates": [
          -0.3721447,
          39.462651
        ]
      }
    },
    {
      "type": "Feature",
      "properties": {
        "lat": 39.463527614,
        "lon": -0.3693982,
        "Nombre": "FloRa bake & Espresso",
        "Dirección": "C/ del Dr. Sumsi, 8",
        "Descripción de Sara": "Aquí los pasteles se disfrutan mejor con el sabor intenso su café."
      },
      "geometry": {
        "type": "Point",
        "coordinates": [
          -0.3693982,
          39.4635276
        ]
      }
    },
    {
      "type": "Feature",
      "properties": {
        "lat": 39.462814984,
        "lon": -0.3810553,
        "Nombre": "Flying Bean Coffee",
        "Dirección": "C/ del Doctor Vila Barberà, 12",
        "Descripción de Sara": "Ganos tostados en el local, extracción precisa con la Black Eagle y opciones como Nitro Cold Brew"
      },
      "geometry": {
        "type": "Point",
        "coordinates": [
          -0.3810553,
          39.462815
        ]
      }
    },
    {
      "type": "Feature",
      "properties": {
        "lat": 39.457515208,
        "lon": -0.3878437,
        "Nombre": "Foc Coffee",
        "Dirección": "C/ Mateu i Sanç, 25",
        "Descripción de Sara": "Café de alta calidad a precios razonables"
      },
      "geometry": {
        "type": "Point",
        "coordinates": [
          -0.3878437,
          39.4575152
        ]
      }
    },
    {
      "type": "Feature",
      "properties": {
        "lat": 39.471744566,
        "lon": -0.3288882,
        "Nombre": "FOUR Specialty Coffee & Bistro",
        "Dirección": "C/ d'Espadà, 31",
        "Descripción de Sara": "Opciones vegetarianas y veganas, ingredientes frescos y un ambiente acogedor."
      },
      "geometry": {
        "type": "Point",
        "coordinates": [
          -0.3288882,
          39.4717446
        ]
      }
    },
    {
      "type": "Feature",
      "properties": {
        "lat": 39.47724175,
        "lon": -0.383026,
        "Nombre": "Fran Café",
        "Dirección": "C/ de Puerto Rico, 29, L'Eixample, 46004",
        "Descripción de Sara": "Un pequeño rincón situado en el barrio de Russafa que invita a entrar y probar su café take away."
      },
      "geometry": {
        "type": "Point",
        "coordinates": [
          -0.383026,
          39.4772417
        ]
      }
    },
    {
      "type": "Feature",
      "properties": {
        "lat": 39.462240494,
        "lon": -0.3669821,
        "Nombre": "Fumi Specialty Coffee",
        "Dirección": "C/ de Matias Perelló, 37",
        "Descripción de Sara": "Un espacio donde la pausa del café se convierte en tu ritual diario de autocuidado."
      },
      "geometry": {
        "type": "Point",
        "coordinates": [
          -0.3669821,
          39.4622405
        ]
      }
    },
    {
      "type": "Feature",
      "properties": {
        "lat": 39.466714519,
        "lon": -0.3541093,
        "Nombre": "Gartxi Coffee",
        "Dirección": "Avenida del Port, 65, Bajo Izquierda, Camins al Grau, 46021",
        "Descripción de Sara": "Dispone además de un patio interior, perfecto para disfrutar de un desayuno al aire libre."
      },
      "geometry": {
        "type": "Point",
        "coordinates": [
          -0.3541093,
          39.4667145
        ]
      }
    },
    {
      "type": "Feature",
      "properties": {
        "lat": 39.463571782,
        "lon": -0.3636492,
        "Nombre": "Gigi World Coffee Specialty",
        "Dirección": "C/ del Mestre Racional, 3, Carrer Quart, 7, 46005",
        "Descripción de Sara": "Apuesta por una cuidadosa selección de granos y tostado artesanal"
      },
      "geometry": {
        "type": "Point",
        "coordinates": [
          -0.3636492,
          39.4635718
        ]
      }
    },
    {
      "type": "Feature",
      "properties": {
        "lat": 39.473142227,
        "lon": -0.3759099,
        "Nombre": "Goat Coffee Store",
        "Dirección": "C/ de l'Abadia de Sant Martí, 4",
        "Descripción de Sara": "Ofrece opciones como el espresso italiano que algunos comparan con el de Roma."
      },
      "geometry": {
        "type": "Point",
        "coordinates": [
          -0.3759099,
          39.4731422
        ]
      }
    },
    {
      "type": "Feature",
      "properties": {
        "lat": 39.484563647,
        "lon": -0.370873,
        "Nombre": "Henko Specialty Coffee",
        "Dirección": "C/  Almazora, 44, Bajo Izquierda",
        "Descripción de Sara": "Ofrece café de origen, tostado fresco y adaptado a distintos métodos de preparación"
      },
      "geometry": {
        "type": "Point",
        "coordinates": [
          -0.370873,
          39.4845636
        ]
      }
    },
    {
      "type": "Feature",
      "properties": {
        "lat": 39.470854896,
        "lon": -0.3724026,
        "Nombre": "I’N Coffee & Tea",
        "Dirección": "C/ del Dr. Romagosa, 5, Ciutat Vella, 46002",
        "Descripción de Sara": "Café de calidad, con tueste propio,  programa de fidelidad y ambiente acogedor"
      },
      "geometry": {
        "type": "Point",
        "coordinates": [
          -0.3724026,
          39.4708549
        ]
      }
    },
    {
      "type": "Feature",
      "properties": {
        "lat": 39.470622514,
        "lon": -0.3736901,
        "Nombre": "Ikore Kofi – Centro",
        "Dirección": "C/ de Pascual i Genís, 3, Bajo Izquierda",
        "Descripción de Sara": "Una experiencia completa que involucra la calidad, la sostenibilidad, la educación y la pasión por esta bebida"
      },
      "geometry": {
        "type": "Point",
        "coordinates": [
          -0.3736901,
          39.4706225
        ]
      }
    },
    {
      "type": "Feature",
      "properties": {
        "lat": 39.462538684,
        "lon": -0.3711152,
        "Nombre": "Ikore Kofi – Market",
        "Dirección": "Plaza del Baró de Cortés, 24, Mercado de Ruzafa",
        "Descripción de Sara": "Selección de granos, tueste artesanal junto con catas y cursos"
      },
      "geometry": {
        "type": "Point",
        "coordinates": [
          -0.3711152,
          39.4625387
        ]
      }
    },
    {
      "type": "Feature",
      "properties": {
        "lat": 39.478969493,
        "lon": -0.3746772,
        "Nombre": "Kaffeina Brunch & Specialty",
        "Dirección": "C/ del Mur de Santa Anna, 4",
        "Descripción de Sara": "Se specializa en brunchs con cafés de especialidad"
      },
      "geometry": {
        "type": "Point",
        "coordinates": [
          -0.3746772,
          39.4789695
        ]
      }
    },
    {
      "type": "Feature",
      "properties": {
        "lat": 39.464823872,
        "lon": -0.365665,
        "Nombre": "Kaffeina Brunch & Specialty",
        "Dirección": "C/ de la Reina Na Germana, 9, L'Eixample, 46005",
        "Descripción de Sara": "Buen café en medio del bullicio de la ciudad."
      },
      "geometry": {
        "type": "Point",
        "coordinates": [
          -0.365665,
          39.4648239
        ]
      }
    },
    {
      "type": "Feature",
      "properties": {
        "lat": 39.466655259,
        "lon": -0.3658333,
        "Nombre": "Kaffetto Coffee Roasters",
        "Dirección": "C/ Císcar, 15",
        "Descripción de Sara": "Ofrece una frescura de tueste reciente"
      },
      "geometry": {
        "type": "Point",
        "coordinates": [
          -0.3658333,
          39.4666553
        ]
      }
    },
    {
      "type": "Feature",
      "properties": {
        "lat": 39.464993186,
        "lon": -0.3293603,
        "Nombre": "Kaide Coffee",
        "Dirección": "C/ de la Reina, 23",
        "Descripción de Sara": "Se distingue por la creatividad en sus preparaciones"
      },
      "geometry": {
        "type": "Point",
        "coordinates": [
          -0.3293603,
          39.4649932
        ]
      }
    },
    {
      "type": "Feature",
      "properties": {
        "lat": 39.471662592,
        "lon": -0.3840368,
        "Nombre": "Karma Café",
        "Dirección": "Gran Vía de Fernando el Católico, 8",
        "Descripción de Sara": "Un espacio pensado para la comodidad del cliente y atención a los detalles"
      },
      "geometry": {
        "type": "Point",
        "coordinates": [
          -0.3840368,
          39.4716626
        ]
      }
    },
    {
      "type": "Feature",
      "properties": {
        "lat": 39.489029151,
        "lon": -0.4005829,
        "Nombre": "Kohi Café de Especialidad",
        "Dirección": "C/ de la Safor, 9",
        "Descripción de Sara": "Calificado con más de 80 puntos por la Specialty Coffee Association (SCA)"
      },
      "geometry": {
        "type": "Point",
        "coordinates": [
          -0.4005829,
          39.4890292
        ]
      }
    },
    {
      "type": "Feature",
      "properties": {
        "lat": 39.464664643,
        "lon": -0.3752599,
        "Nombre": "Kopi Specialty Coffee",
        "Dirección": "Gran Via de les Germanies, 16",
        "Descripción de Sara": "De la finca a la taza: un recorrido con trazabilidad y respeto por cada etapa del proceso."
      },
      "geometry": {
        "type": "Point",
        "coordinates": [
          -0.3752599,
          39.4646646
        ]
      }
    },
    {
      "type": "Feature",
      "properties": {
        "lat": 39.475459366,
        "lon": -0.3765412,
        "Nombre": "La Droguería | Speciality Coffee",
        "Dirección": "C/ de la Corretgeria, 23",
        "Descripción de Sara": "Un espacio con decoración cuidada y un café de sabor intenso que marca la diferencia."
      },
      "geometry": {
        "type": "Point",
        "coordinates": [
          -0.3765412,
          39.4754594
        ]
      }
    },
    {
      "type": "Feature",
      "properties": {
        "lat": 39.472811773,
        "lon": -0.3776153,
        "Nombre": "La Guashira Specialty Coffee",
        "Dirección": "C/ Flassaders, 8",
        "Descripción de Sara": "Produce variedades exóticas de café de especialidad en su propia finca de Colombia"
      },
      "geometry": {
        "type": "Point",
        "coordinates": [
          -0.3776153,
          39.4728118
        ]
      }
    },
    {
      "type": "Feature",
      "properties": {
        "lat": 39.46096527,
        "lon": -0.3707826,
        "Nombre": "Let it bloom",
        "Dirección": "C/ de Francesc Sempere, 4, Bj Izq 01",
        "Descripción de Sara": "Calidad, conocimiento y pasión por el café de especialidad, con opciones veganas creativas."
      },
      "geometry": {
        "type": "Point",
        "coordinates": [
          -0.3707826,
          39.4609653
        ]
      }
    },
    {
      "type": "Feature",
      "properties": {
        "lat": 39.459488876,
        "lon": -0.3752366,
        "Nombre": "Los Picos Café",
        "Dirección": "Plaza Manuel Granero, 20",
        "Descripción de Sara": "Dominan la AeroPress y preparan un sándwich cubano famoso en la ciudad"
      },
      "geometry": {
        "type": "Point",
        "coordinates": [
          -0.3752366,
          39.4594889
        ]
      }
    },
    {
      "type": "Feature",
      "properties": {
        "lat": 39.482427513,
        "lon": -0.3715992,
        "Nombre": "Mayan Coffees",
        "Dirección": "C/  d'Hug de Montcada, 19, La Saïdia, 46010 València, Valencia",
        "Descripción de Sara": "Uno de los pocos locales que ofrece café infusionado"
      },
      "geometry": {
        "type": "Point",
        "coordinates": [
          -0.3715992,
          39.4824275
        ]
      }
    },
    {
      "type": "Feature",
      "properties": {
        "lat": 39.475728083,
        "lon": -0.383637,
        "Nombre": "Mayan Coffees",
        "Dirección": "C/ Murillo, 54",
        "Descripción de Sara": "Opciones seleccionadas para resaltar las características únicas de cada grano"
      },
      "geometry": {
        "type": "Point",
        "coordinates": [
          -0.383637,
          39.4757281
        ]
      }
    },
    {
      "type": "Feature",
      "properties": {
        "lat": 39.472856227,
        "lon": -0.3486034,
        "Nombre": "Maybean Café",
        "Dirección": "C/ del Dr. Manuel Candela, 75",
        "Descripción de Sara": "Ideal para trabajar o disfrutar de un brunch. Ofrece comida saludable, con opciones veganas y sin gluten."
      },
      "geometry": {
        "type": "Point",
        "coordinates": [
          -0.3486034,
          39.4728562
        ]
      }
    },
    {
      "type": "Feature",
      "properties": {
        "lat": 39.477571806,
        "lon": -0.3782947,
        "Nombre": "Mestizo",
        "Dirección": "C/ del Portal de Valldigna, 9",
        "Descripción de Sara": "Terraza y dos salas, pet friendly, con opciones veganas y sin gluten para todos los gustos."
      },
      "geometry": {
        "type": "Point",
        "coordinates": [
          -0.3782947,
          39.4775718
        ]
      }
    },
    {
      "type": "Feature",
      "properties": {
        "lat": 39.461585953,
        "lon": -0.3321588,
        "Nombre": "MiKENGO",
        "Dirección": "C. del Dr. Josep Juan Dómine, 9, bajo izquierda",
        "Descripción de Sara": "Un nuevo concepto en café y comida. Ofrece café de especialidad, bizcochos y bebidas caseras, increíbles tostadas y opciones sanas para disfrutar en cualquier momento del día"
      },
      "geometry": {
        "type": "Point",
        "coordinates": [
          -0.3321588,
          39.461586
        ]
      }
    },
    {
      "type": "Feature",
      "properties": {
        "lat": 39.466238348,
        "lon": -0.3766287,
        "Nombre": "Mora caffè",
        "Dirección": "C/ de Castellón, 2",
        "Descripción de Sara": "Ofrece café de alta calidad con un enfoque en el espresso italiano."
      },
      "geometry": {
        "type": "Point",
        "coordinates": [
          -0.3766287,
          39.4662383
        ]
      }
    },
    {
      "type": "Feature",
      "properties": {
        "lat": 39.480352167,
        "lon": -0.3633185,
        "Nombre": "Navel Brunch and coffee",
        "Dirección": "C/  de Menéndez y Pelayo, 5",
        "Descripción de Sara": "Parada obligatoria para los amantes del café. Envuélvete en el sabor refinado del verdadero espresso italiano."
      },
      "geometry": {
        "type": "Point",
        "coordinates": [
          -0.3633185,
          39.4803522
        ]
      }
    },
    {
      "type": "Feature",
      "properties": {
        "lat": 39.535307605,
        "lon": -0.3655442,
        "Nombre": "Near Me Specialty Coffee",
        "Dirección": "Plaza del Col·legi del Patriarca, 3",
        "Descripción de Sara": "¿Alguna vez has visto cómo tu café se enlata en tiempo real?"
      },
      "geometry": {
        "type": "Point",
        "coordinates": [
          -0.3655442,
          39.5353076
        ]
      }
    },
    {
      "type": "Feature",
      "properties": {
        "lat": 39.474642432,
        "lon": -0.377729,
        "Nombre": "News & Coffee",
        "Dirección": "Plaza Doctor Collado, 9, kiosko de prensa",
        "Descripción de Sara": "Un espacio que combina la venta de revistas y prensa con la oferta de café de alta calidad"
      },
      "geometry": {
        "type": "Point",
        "coordinates": [
          -0.377729,
          39.4746424
        ]
      }
    },
    {
      "type": "Feature",
      "properties": {
        "lat": 39.469565552,
        "lon": -0.3854626,
        "Nombre": "Nuwanda Coffee",
        "Dirección": "C/ del Doctor Sanchis Sivera, 8",
        "Descripción de Sara": "Inspirada en la película \"El Club de los Poetas Muertos\""
      },
      "geometry": {
        "type": "Point",
        "coordinates": [
          -0.3854626,
          39.4695656
        ]
      }
    },
    {
      "type": "Feature",
      "properties": {
        "lat": 39.471810658,
        "lon": -0.3843488,
        "Nombre": "Pals cafe. Specialty coffee",
        "Dirección": "C/ Mestre Palau, 4",
        "Descripción de Sara": "Combina la energía de la gran ciudad con la calidez de una comunidad cercana"
      },
      "geometry": {
        "type": "Point",
        "coordinates": [
          -0.3843488,
          39.4718107
        ]
      }
    },
    {
      "type": "Feature",
      "properties": {
        "lat": 39.467154732,
        "lon": -0.3720907,
        "Nombre": "Paper cup specialty coffee",
        "Dirección": "C/ de Ciril Amorós, 30",
        "Descripción de Sara": "Café de especialidad tostado en casa y propuestas creativas como el horchata latte"
      },
      "geometry": {
        "type": "Point",
        "coordinates": [
          -0.3720907,
          39.4671547
        ]
      }
    },
    {
      "type": "Feature",
      "properties": {
        "lat": 39.474530898,
        "lon": -0.3887347,
        "Nombre": "Paramoka",
        "Dirección": "C/ de Sant Ignasi de Loiola, 4, Extramurs, 46008",
        "Descripción de Sara": "Tuestes diseñados para cada método: moka, filtro y espresso."
      },
      "geometry": {
        "type": "Point",
        "coordinates": [
          -0.3887347,
          39.4745309
        ]
      }
    },
    {
      "type": "Feature",
      "properties": {
        "lat": 39.473280381,
        "lon": -0.37136,
        "Nombre": "Pure coffeine",
        "Dirección": "C/ de la Pau, 23",
        "Descripción de Sara": "Modelo Grab&Go, tecnología para garantizar calidad constante"
      },
      "geometry": {
        "type": "Point",
        "coordinates": [
          -0.37136,
          39.4732804
        ]
      }
    },
    {
      "type": "Feature",
      "properties": {
        "lat": 39.469518104,
        "lon": -0.3711238,
        "Nombre": "Pure Coffeine",
        "Dirección": "Carrer d'Isabel la Catòlica, 2",
        "Descripción de Sara": "Buscan convertir un ritual diario en algo accesible para todos"
      },
      "geometry": {
        "type": "Point",
        "coordinates": [
          -0.3711238,
          39.4695181
        ]
      }
    },
    {
      "type": "Feature",
      "properties": {
        "lat": 39.485034497,
        "lon": -0.3708754,
        "Nombre": "Puto Café",
        "Dirección": "C/ Senda de l'Aire, 2",
        "Descripción de Sara": "La cafetería más viral de Valencia: si dices esta palabra malsonante, te cobran menos por el café."
      },
      "geometry": {
        "type": "Point",
        "coordinates": [
          -0.3708754,
          39.4850345
        ]
      }
    },
    {
      "type": "Feature",
      "properties": {
        "lat": 39.476245464,
        "lon": -0.3806132,
        "Nombre": "Q7th Specialty Coffee",
        "Dirección": "Calle Quart, 7, 46001",
        "Descripción de Sara": "Cafés de origen diverso y múltiples formas de preparación"
      },
      "geometry": {
        "type": "Point",
        "coordinates": [
          -0.3806132,
          39.4762455
        ]
      }
    },
    {
      "type": "Feature",
      "properties": {
        "lat": 39.483295676,
        "lon": -0.3548849,
        "Nombre": "Raíces Café",
        "Dirección": "Eduardo Boscá, 24",
        "Descripción de Sara": "U refugio para los amantes de esta bebida, pero también del arte o la música."
      },
      "geometry": {
        "type": "Point",
        "coordinates": [
          -0.3548849,
          39.4832957
        ]
      }
    },
    {
      "type": "Feature",
      "properties": {
        "lat": 39.47355418,
        "lon": -0.3788365,
        "Nombre": "Retrogusto Coffeemates",
        "Dirección": "Plaza del Mercado, Mercado Central de Valencia, palcos 169-170",
        "Descripción de Sara": "Ubicado en el corazón del Mercado Central"
      },
      "geometry": {
        "type": "Point",
        "coordinates": [
          -0.3788365,
          39.4735542
        ]
      }
    },
    {
      "type": "Feature",
      "properties": {
        "lat": 39.485385162,
        "lon": -0.36295,
        "Nombre": "Riot Specialty Coffee",
        "Dirección": "C/ del Doctor Vicent Zaragoza, 15",
        "Descripción de Sara": "Alog más que café, con cookies variadas"
      },
      "geometry": {
        "type": "Point",
        "coordinates": [
          -0.36295,
          39.4853852
        ]
      }
    },
    {
      "type": "Feature",
      "properties": {
        "lat": 39.467968328,
        "lon": -0.3718629,
        "Nombre": "Syra Coffee – Cirilo Amorós",
        "Dirección": "C/ de Ciril Amorós, 35, L'Eixample, 46004",
        "Descripción de Sara": "Café de especialidad con compromiso por la sostenibilidad y el comercio justo"
      },
      "geometry": {
        "type": "Point",
        "coordinates": [
          -0.3718629,
          39.4679683
        ]
      }
    },
    {
      "type": "Feature",
      "properties": {
        "lat": 39.469856701,
        "lon": -0.3752961,
        "Nombre": "Syra Coffee – Roger de Lauria",
        "Dirección": "C/ de Roger de Llòria, 3, Ciutat Vella, 46002",
        "Descripción de Sara": "Local minimalista que destaca por su compromiso con la sostenibilidad"
      },
      "geometry": {
        "type": "Point",
        "coordinates": [
          -0.3752961,
          39.4698567
        ]
      }
    },
    {
      "type": "Feature",
      "properties": {
        "lat": 39.478304055,
        "lon": -0.3763261,
        "Nombre": "Syra Coffee – Samaniego",
        "Dirección": "C/ de Samaniego, 18, Ciutat Vella, 46003",
        "Descripción de Sara": "Ofrece todo tipo de variedades del café dependiendo de la temporada"
      },
      "geometry": {
        "type": "Point",
        "coordinates": [
          -0.3763261,
          39.4783041
        ]
      }
    },
    {
      "type": "Feature",
      "properties": {
        "lat": 39.467835809,
        "lon": -0.3678718,
        "Nombre": "Syra Coffee – Turia",
        "Dirección": "Gran Via del Marqués del Túria, 54, L'Eixample, 46005",
        "Descripción de Sara": "Diseño urbano pensado para el disfrute diario."
      },
      "geometry": {
        "type": "Point",
        "coordinates": [
          -0.3678718,
          39.4678358
        ]
      }
    },
    {
      "type": "Feature",
      "properties": {
        "lat": 39.464911562,
        "lon": -0.3299188,
        "Nombre": "Tallat Specialty Coffee",
        "Dirección": "C/ Barraca, 25",
        "Descripción de Sara": "Se ha consolidado como un punto de encuentro para amantes del café"
      },
      "geometry": {
        "type": "Point",
        "coordinates": [
          -0.3299188,
          39.4649116
        ]
      }
    },
    {
      "type": "Feature",
      "properties": {
        "lat": 39.473738899,
        "lon": -0.3762943,
        "Nombre": "The Coffee",
        "Dirección": "C/ dels Drets, 3",
        "Descripción de Sara": "Lo mejor del café brasileño junto con la pureza y perfeccionismo japonés."
      },
      "geometry": {
        "type": "Point",
        "coordinates": [
          -0.3762943,
          39.4737389
        ]
      }
    },
    {
      "type": "Feature",
      "properties": {
        "lat": 39.456013819,
        "lon": -0.3585466,
        "Nombre": "Tinobu Healthy food & Coffee",
        "Dirección": "Avenida de l'Institut Obrer de València, 15",
        "Descripción de Sara": "Desayunos sanos tanto dulces como salados, 100% sin gluten y sin lactosa."
      },
      "geometry": {
        "type": "Point",
        "coordinates": [
          -0.3585466,
          39.4560138
        ]
      }
    },
    {
      "type": "Feature",
      "properties": {
        "lat": 39.460642888,
        "lon": -0.395326,
        "Nombre": "Tostarte Specialty Coffee",
        "Dirección": "C/ de la Vall d'Uixó, 3",
        "Descripción de Sara": "Un espacio acogedor para trabajar, socializar o ir con tu mascota."
      },
      "geometry": {
        "type": "Point",
        "coordinates": [
          -0.395326,
          39.4606429
        ]
      }
    },
    {
      "type": "Feature",
      "properties": {
        "lat": 39.474289342,
        "lon": -0.3770898,
        "Nombre": "UNCAFE",
        "Dirección": "C/ de Martín Mengod, 6, Ciutat Vella, 46001",
        "Descripción de Sara": "Conocido por la pasión de su barista, dispuesto a compartir historias sobre Valencia."
      },
      "geometry": {
        "type": "Point",
        "coordinates": [
          -0.3770898,
          39.4742893
        ]
      }
    },
    {
      "type": "Feature",
      "properties": {
        "lat": 39.476146494,
        "lon": -0.3766029,
        "Nombre": "Vuka (Coffee & Brunch)",
        "Dirección": "C/ dels Juristes, 12, Ciutat Vella, 46001",
        "Descripción de Sara": "Café de especialidad y repostería artesanal cerca de la Plaza de la Virgen"
      },
      "geometry": {
        "type": "Point",
        "coordinates": [
          -0.3766029,
          39.4761465
        ]
      }
    }
  ]
}